City,Lat,Lng,Max Temp,Humidity,Cloudiness,Wind Speed,Country,Date
Kapaa,22.0752,-159.319,26.18,76,90,0.89,US,1629912860
Esperance,-33.8667,121.9,12.91,49,86,8.94,AU,1629912860
Qaanaaq,77.484,-69.3632,4.72,85,100,4.78,GL,1629912861
Cape Town,-33.9258,18.4232,14.51,82,0,0.89,ZA,1629912861
Mehrān,33.1222,46.1646,36.71,9,0,4.29,IR,1629912861
Pampa,35.5362,-100.9599,36.22,40,1,5.14,US,1629912646
Brae,60.3964,-1.353,12.95,80,62,5.83,GB,1629912862
Butaritari,3.0707,172.7902,28.5,70,100,7.14,KI,1629912862
Arrondissement d'Ajaccio,42.0,8.9167,25.27,73,0,2.57,FR,1629912862
Bonthe,7.5264,-12.505,24.39,92,100,2.77,SL,1629912862
Iqaluit,63.7506,-68.5145,6.85,81,75,3.6,CA,1629912613
Smithers,54.7804,-127.1743,11.18,76,75,1.54,CA,1629912793
Punta Arenas,-53.15,-70.9167,5.06,70,75,7.72,CL,1629912863
Bariloche,-41.1456,-71.3082,5.86,75,75,13.38,AR,1629912628
Ushuaia,-54.8,-68.3,3.81,52,0,0.0,AR,1629912835
Hobart,-42.8794,147.3294,6.92,86,40,4.12,AU,1629912864
Boende,-0.2167,20.8667,26.69,62,19,0.86,CD,1629912864
Busselton,-33.65,115.3333,11.69,84,30,3.87,AU,1629912864
Carnarvon,-24.8667,113.6333,19.04,79,40,7.72,AU,1629912864
Geraldton,-28.7667,114.6,13.23,94,90,3.09,AU,1629912865
Dikson,73.5069,80.5464,3.25,87,100,8.3,RU,1629912865
Havøysund,70.9963,24.6622,12.49,72,31,3.18,NO,1629912865
San Jerónimo,-11.9472,-75.2829,18.55,25,90,0.84,PE,1629912866
San Andrés,12.5847,-81.7006,30.01,79,75,6.69,CO,1629912866
Nisibis,37.0778,41.2178,32.3,19,0,2.83,TR,1629912866
Salalah,17.0151,54.0924,26.05,89,90,3.09,OM,1629912867
Flinders,-34.5833,150.8552,11.77,66,72,1.79,AU,1629912867
Vaini,-21.2,-175.2,19.09,72,40,4.12,TO,1629912867
Thinadhoo,0.5333,72.9333,28.07,75,46,5.25,MV,1629912868
Atuona,-9.8,-139.0333,25.33,74,63,8.93,PF,1629912868
Kumul,42.8,93.45,24.62,19,17,3.13,CN,1629912868
Saiha,22.4833,92.9667,22.45,100,100,0.7,IN,1629912869
Mitsamiouli,-11.3847,43.2844,24.16,78,20,2.06,KM,1629912869
Ponta Delgada,37.7333,-25.6667,23.4,60,20,8.75,PT,1629912869
Dudinka,69.4058,86.1778,6.14,93,100,5.57,RU,1629912870
Pori,61.4833,21.7833,13.04,94,20,2.57,FI,1629912870
San Ramon,37.7799,-121.978,22.12,76,1,2.24,US,1629912644
North Las Vegas,36.1989,-115.1175,36.38,13,1,2.06,US,1629912560
Muhafazat Lahij,13.1667,44.5833,32.56,42,36,3.05,YE,1629912870
Hermanus,-34.4187,19.2345,14.39,82,0,3.76,ZA,1629912871
Jamestown,42.097,-79.2353,31.21,63,1,1.34,US,1629912731
Pevek,69.7008,170.3133,1.41,97,100,7.98,RU,1629912871
Westport,41.1415,-73.3579,33.74,60,1,0.45,US,1629912663
Auki,-8.7676,160.7034,24.39,89,100,1.84,SB,1629912872
Florina,40.782,21.4098,23.57,59,54,1.56,GR,1629912872
Hofn,64.2539,-15.2082,13.01,100,90,2.57,IS,1629912872
Pangnirtung,66.1451,-65.7125,6.0,93,90,4.12,CA,1629912873
Čerčany,49.8529,14.703,19.98,62,2,1.91,CZ,1629912873
San Cristobal,7.7669,-72.225,29.1,53,92,3.49,VE,1629912873
Rikitea,-23.1203,-134.9692,21.54,68,12,3.41,PF,1629912874
Basco,20.4487,121.9702,28.78,73,10,4.66,PH,1629912874
San Rafael,-34.6177,-68.3301,17.14,13,22,2.69,AR,1629912875
Jaca,42.569,-0.5499,28.34,46,51,0.08,ES,1629912875
Cape Canaveral,28.4058,-80.6048,34.0,69,20,3.09,US,1629912875
Makakilo City,21.3469,-158.0858,24.27,76,1,2.06,US,1629912876
Aktobe,50.2797,57.2072,27.05,19,0,1.0,KZ,1629912876
Hilo,19.7297,-155.09,24.6,82,75,3.09,US,1629912778
Ponta do Sol,32.6667,-17.1,27.23,74,61,1.86,PT,1629912876
Saint George,37.1041,-113.5841,35.26,19,2,1.79,US,1629912626
Ancud,-41.8697,-73.8203,8.74,79,92,10.92,CL,1629912877
Airai,-8.9266,125.4092,13.28,88,69,1.39,TL,1629912877
Moyale,3.5167,39.0584,21.92,34,7,3.52,KE,1629912877
San Patricio,28.017,-97.5169,35.01,42,4,5.1,US,1629912878
Cabo San Lucas,22.8909,-109.9124,34.89,64,1,4.63,MX,1629912878
Harper,4.375,-7.7169,25.36,85,80,4.36,LR,1629912878
Olafsvik,64.8945,-23.7142,13.27,93,100,10.68,IS,1629912879
Khatanga,71.9667,102.5,4.2,91,100,8.43,RU,1629912879
Lompoc,34.6391,-120.4579,19.91,82,90,2.57,US,1629912879
Kamenka,51.3223,42.7678,18.45,50,11,4.21,RU,1629912880
Dunedin,-45.8742,170.5036,8.22,79,91,1.94,NZ,1629912880
Huilong,31.8111,121.655,27.21,83,97,2.39,CN,1629912880
Dawlatabad,36.4141,64.9053,26.97,13,0,2.36,AF,1629912881
Kloulklubed,7.0419,134.2556,24.28,71,100,1.59,PW,1629912881
Alès,44.1333,4.0833,28.39,50,39,2.65,FR,1629912881
São José da Coroa Grande,-8.8978,-35.1478,25.44,76,56,6.17,BR,1629912882
Pitsunda,43.1592,40.3378,26.1,82,7,1.97,GE,1629912882
Acapulco de Juárez,16.8634,-99.8901,28.9,79,90,5.66,MX,1629912639
Hithadhoo,-0.6,73.0833,27.79,74,32,4.04,MV,1629912882
Taft,31.7471,54.2088,26.97,13,0,0.0,IR,1629912883
La Rioja,42.25,-2.5,26.88,41,8,1.88,ES,1629912883
Samarai,-10.6167,150.6667,25.95,82,66,6.29,PG,1629912883
Port Alfred,-33.5906,26.891,17.23,85,0,6.14,ZA,1629912884
Kavieng,-2.5744,150.7967,27.23,78,68,4.76,PG,1629912884
Tasiilaq,65.6145,-37.6368,10.09,97,100,3.46,GL,1629912884
Muyezerskiy,63.9333,31.65,8.27,75,99,3.68,RU,1629912885
Hong Kong,22.2855,114.1577,29.62,82,93,3.34,HK,1629912841
Wurzburg,49.7878,9.9361,20.89,63,98,1.55,DE,1629912885
Longyearbyen,78.2186,15.6401,4.91,93,75,3.6,SJ,1629912885
Stykkisholmur,65.0757,-22.7297,14.28,87,100,8.08,IS,1629912886
Mokhsogollokh,61.4681,128.9203,9.53,90,90,2.61,RU,1629912886
Saint-Philippe,-21.3585,55.7679,19.77,76,39,3.72,RE,1629912886
Cidreira,-30.1811,-50.2056,18.23,91,99,2.39,BR,1629912887
Vila Velha,-20.3297,-40.2925,27.97,54,20,10.29,BR,1629912887
Ciudad Bolivar,8.1222,-63.5497,33.73,46,57,3.54,VE,1629912887
Arraial do Cabo,-22.9661,-42.0278,29.92,45,0,8.75,BR,1629912887
Alice Springs,-23.7,133.8833,2.75,41,0,0.0,AU,1629912888
Liwale,-9.7667,37.9333,23.33,59,9,4.28,TZ,1629912888
Mar del Plata,-38.0023,-57.5575,17.01,34,0,6.17,AR,1629912888
Norman Wells,65.282,-126.8329,12.02,94,90,3.6,CA,1629912889
Mehamn,71.0357,27.8492,11.1,81,20,5.14,NO,1629912889
Lakes Entrance,-37.8811,147.981,8.65,82,100,4.92,AU,1629912889
Nanortalik,60.1432,-45.2371,8.43,82,99,2.59,GL,1629912890
Sheridan,44.8333,-106.9173,29.62,42,4,1.79,US,1629912890
Shyroke,47.6917,33.2571,23.58,46,92,3.67,UA,1629912890
Puerto Ayora,-0.7393,-90.3518,24.98,82,100,4.92,EC,1629912891
Albany,42.6001,-73.9662,32.01,62,49,0.71,US,1629912603
Katsuura,35.1333,140.3,27.06,92,83,1.84,JP,1629912891
Mataura,-46.1927,168.8643,5.82,91,99,1.68,NZ,1629912891
Maracás,-13.4411,-40.4308,25.89,37,8,4.92,BR,1629912892
Srīsailain,16.0833,78.8667,25.57,76,59,1.45,IN,1629912892
Novo Aripuanã,-5.1206,-60.3797,31.48,47,67,1.62,BR,1629912892
Kangāvar,34.5043,47.9653,26.53,15,1,0.85,IR,1629912893
Bredasdorp,-34.5322,20.0403,12.62,82,0,2.06,ZA,1629912893
Yellowknife,62.456,-114.3525,16.29,77,20,7.2,CA,1629912626
East London,-33.0153,27.9116,18.52,82,0,3.6,ZA,1629912894
Erzin,36.9559,36.2,28.4,85,1,1.3,TR,1629912895
Bend,44.0582,-121.3153,20.11,32,1,0.45,US,1629912895
Brenes,37.5494,-5.8714,31.07,42,0,4.12,ES,1629912895
Bluff,-46.6,168.3333,6.0,87,100,5.45,NZ,1629912896
Leshukonskoye,64.8989,45.7622,8.77,76,100,2.89,RU,1629912896
Saldanha,-33.0117,17.9442,14.03,85,0,2.68,ZA,1629912896
Kichera,55.9375,110.0997,11.63,65,94,2.33,RU,1629912897
Bethel,41.3712,-73.414,33.04,57,1,2.06,US,1629912640
Aykhal,66.0,111.5,6.7,85,3,8.43,RU,1629912897
Los Chiles,11.0333,-84.7167,24.36,92,98,1.44,CR,1629912897
Talara,-4.5772,-81.2719,25.42,57,0,8.23,PE,1629912898
Hasaki,35.7333,140.8333,25.22,88,99,1.58,JP,1629912898
Kununurra,-15.7667,128.7333,20.72,23,4,2.99,AU,1629912898
Pizarro,4.9533,-77.366,25.65,88,100,2.52,CO,1629912899
Kargasok,59.0556,80.8572,20.18,75,67,2.73,RU,1629912899
Labuhan,-6.8844,112.2051,24.28,76,32,4.98,ID,1629912899
Sagna,46.9833,27.0167,17.19,95,100,4.69,RO,1629912900
Tuatapere,-46.1333,167.6833,6.01,90,100,2.68,NZ,1629912900
Sfântu Gheorghe,45.8667,25.7833,17.93,97,100,0.72,RO,1629912900
Ukrayinka,47.9167,35.35,23.16,49,0,1.0,UA,1629912901
Londoko,49.0333,131.9833,17.32,88,96,0.9,RU,1629912901
Saint Paul Harbor,57.79,-152.4072,11.73,82,90,0.0,US,1629912901
Micheweni,-4.9667,39.8333,23.81,78,0,5.96,TZ,1629912901
De Aar,-30.6497,24.0123,17.0,12,2,3.87,ZA,1629912902
Clyde River,70.4692,-68.5914,8.13,66,90,7.2,CA,1629912902
Severnyy,50.677,36.5532,21.02,68,0,2.0,RU,1629912902
Khani,41.9563,42.9566,20.76,78,55,1.57,GE,1629912903
Vanavara,60.34,102.2797,12.86,97,68,2.05,RU,1629912903
Nuuk,64.1835,-51.7216,9.34,87,90,5.66,GL,1629912911
Show Low,34.2542,-110.0298,29.81,26,1,0.89,US,1629912799
Saint-Augustin,51.226,-58.6502,23.62,40,72,4.59,CA,1629912911
Riyadh,24.6877,46.7219,36.08,14,6,0.59,SA,1629912911
Sinnamary,5.3833,-52.95,29.86,62,6,4.25,GF,1629912912
Alofi,-19.0595,-169.9187,20.94,73,98,5.66,NU,1629912912
Venado Tuerto,-33.7456,-61.9688,18.2,25,45,2.41,AR,1629912912
Barrow,71.2906,-156.7887,0.01,86,90,3.09,US,1629912913
Hīt,33.6416,42.8251,37.9,13,0,4.11,IQ,1629912913
Avarua,-21.2078,-159.775,20.03,88,90,3.6,CK,1629912913
Port-Gentil,-0.7193,8.7815,24.98,83,90,5.66,GA,1629912914
Homer,59.6425,-151.5483,12.65,93,90,2.06,US,1629912914
Itaituba,-4.2761,-55.9836,35.09,49,40,5.14,BR,1629912914
Lagoa,39.05,-27.9833,21.02,63,6,6.28,PT,1629912915
Suffolk,40.8668,-72.7996,33.89,65,1,3.09,US,1629912915
Leningradskiy,69.3833,178.4167,3.44,96,100,6.19,RU,1629912915
Celestún,20.8667,-90.4,30.9,61,63,3.62,MX,1629912916
Kangaba,11.9333,-8.4167,27.67,75,88,1.84,ML,1629912916
Mahāban,27.4333,77.75,31.31,52,69,4.39,IN,1629912916
Wagga Wagga,-35.1167,147.3667,3.23,93,6,1.03,AU,1629912917
Vadodara,22.3,73.2,27.77,76,99,5.94,IN,1629912917
Klaksvík,62.2266,-6.589,12.51,97,100,2.38,FO,1629912917
Luangwa,-15.6167,30.4167,25.94,27,0,2.89,ZM,1629912855
Maués,-3.3836,-57.7186,38.85,24,23,1.78,BR,1629912918
Bengkulu,-3.8004,102.2655,24.14,89,33,3.61,ID,1629912918
Yumen,40.2833,97.2,17.34,28,25,3.61,CN,1629912918
Mopti,14.6667,-4.0,34.98,38,93,4.5,ML,1629912919
Asekeyevo,53.5742,52.7972,20.1,81,86,4.73,RU,1629912919
Hoi An,15.8794,108.335,27.98,88,16,2.38,VN,1629912917
Trelew,-43.249,-65.3051,14.19,28,30,10.15,AR,1629912920
Ishigaki,24.3448,124.1572,28.41,77,76,4.66,JP,1629912920
Kautokeino,69.0125,23.0412,8.78,65,100,1.55,NO,1629912920
Sémbé,1.6481,14.5806,23.19,90,90,1.65,CG,1629912921
Port Lincoln,-34.7333,135.8667,10.88,68,36,4.49,AU,1629912624
Batavia,41.85,-88.3126,32.96,65,1,0.45,US,1629912749
Salinópolis,-0.6136,-47.3561,28.64,70,81,4.89,BR,1629912921
Abu Kamal,34.4506,40.9171,36.62,17,0,2.48,SY,1629912921
Lebu,-37.6167,-73.65,10.77,82,99,6.09,CL,1629912922
Tanout,14.9709,8.8879,36.59,24,45,3.52,NE,1629912922
Margate,51.3813,1.3862,19.54,75,6,1.79,GB,1629912922
Lavrentiya,65.5833,-171.0,5.18,74,100,3.27,RU,1629912923
Severo-Kuril'sk,50.6789,156.125,11.82,96,80,4.54,RU,1629912923
Alghero,40.5589,8.3181,27.05,69,20,3.6,IT,1629912923
Raudeberg,61.9875,5.1352,14.37,84,80,3.58,NO,1629912640
Roboré,-18.3333,-59.75,39.33,14,54,6.02,BO,1629912924
Batticaloa,7.7102,81.6924,28.49,74,86,1.92,LK,1629912924
Arys,42.4252,68.795,29.12,16,0,2.34,KZ,1629912925
Resistencia,-27.4606,-58.9839,15.61,89,90,3.6,AR,1629912925
Warren,39.4334,-84.1666,30.88,67,1,2.06,US,1629912888
Mahébourg,-20.4081,57.7,21.16,68,40,1.54,MU,1629912925
Ban Dung,17.699,103.2596,25.05,88,94,1.7,TH,1629912926
Moose Factory,51.2585,-80.6094,20.0,72,1,2.57,CA,1629912926
Saskylakh,71.9167,114.0833,8.79,96,100,6.56,RU,1629912926
Provideniya,64.3833,-173.3,5.72,76,100,4.4,RU,1629912927
Port Elizabeth,-33.918,25.5701,17.83,77,0,5.66,ZA,1629912808
North Platte,41.1239,-100.7654,23.94,64,90,5.14,US,1629912927
Portland,45.5234,-122.6762,21.92,61,75,0.45,US,1629912928
Lázaro Cárdenas,17.9583,-102.2,29.87,69,65,1.41,MX,1629912908
Petropavlovsk-Kamchatskiy,53.0452,158.6483,11.33,100,90,2.0,RU,1629912928
Charters Towers,-20.1,146.2667,12.57,93,4,2.42,AU,1629912928
Constitución,-35.3333,-72.4167,11.74,67,66,3.38,CL,1629912929
Huanren,41.2647,125.3667,15.72,98,48,1.99,CN,1629912929
Ust-Nera,64.5667,143.2,13.61,91,100,1.93,RU,1629912929
Sitrah,26.1547,50.6206,37.98,40,1,0.45,BH,1629912930
Port Hedland,-20.3167,118.5667,18.03,55,1,2.57,AU,1629912930
Jiutai,44.1525,125.8328,19.19,96,99,3.11,CN,1629912930
Aban,56.67,96.06,13.75,86,100,3.22,RU,1629912931
Kongsberg,59.6652,9.6465,21.06,49,59,0.45,NO,1629912931
Tarauacá,-8.1614,-70.7656,39.08,24,63,1.88,BR,1629912931
Manhattan,40.7834,-73.9662,34.41,46,1,1.54,US,1629912931
Te Anau,-45.4167,167.7167,7.3,91,82,2.35,NZ,1629912932
Upernavik,72.7868,-56.1549,5.32,89,100,10.28,GL,1629912932
Umm Kaddadah,13.6017,26.6876,31.19,41,90,4.88,SD,1629912932
Sampit,-2.5333,112.95,22.82,99,93,1.08,ID,1629912933
Galle,6.0367,80.217,25.91,86,24,3.3,LK,1629912933
Kavaratti,10.5669,72.642,27.29,79,91,7.39,IN,1629912933
Gryfino,53.2524,14.4883,19.01,87,89,7.16,PL,1629912934
Ostrovnoy,68.0531,39.5131,5.85,69,83,2.49,RU,1629912934
Sambava,-14.2667,50.1667,21.45,80,0,6.5,MG,1629912934
Devils Lake,48.1128,-98.8651,17.75,74,0,2.24,US,1629912935
Ivangorod,59.3716,28.2162,12.11,77,100,4.35,RU,1629912935
Quatre Cocos,-20.2078,57.7625,21.06,70,38,5.32,MU,1629912935
Byron Bay,-28.65,153.6167,11.04,67,0,3.19,AU,1629912936
Alta Floresta,-9.8756,-56.0861,36.9,30,40,3.09,BR,1629912836
Bonavista,48.6499,-53.1147,26.0,92,85,7.66,CA,1629912936
Wattegama,6.7989,81.4808,25.72,74,97,3.37,LK,1629912936
Kenai,60.5544,-151.2583,11.19,92,90,1.54,US,1629912937
Fjerritslev,57.0813,9.2664,21.26,60,11,5.87,DK,1629912937
Sechura,-5.5569,-80.8222,24.82,55,47,7.0,PE,1629912938
Tuktoyaktuk,69.4541,-133.0374,5.0,93,90,4.63,CA,1629912938
New Norfolk,-42.7826,147.0587,6.72,83,100,0.45,AU,1629912938
Anadyr,64.75,177.4833,7.28,100,90,5.0,RU,1629912938
Kamaishi,39.2667,141.8833,23.52,91,89,2.65,JP,1629912939
Ouro Preto do Oeste,-10.7481,-62.2158,39.01,18,10,3.17,BR,1629912939
Ribeira Grande,38.5167,-28.7,23.22,60,40,2.57,PT,1629912939
Touros,-5.1989,-35.4608,29.5,67,11,8.84,BR,1629912940
Saint-Pierre,-21.3393,55.4781,19.82,68,0,3.09,RE,1629912940
Timiryazevskiy,56.49,84.8769,17.53,91,31,1.76,RU,1629912940
Svetlaya,46.5389,138.3297,17.41,91,99,5.36,RU,1629912941
Yulara,-25.2406,130.9889,6.91,33,0,2.57,AU,1629912941
Mungaa,-4.9667,34.8833,21.29,33,27,4.34,TZ,1629912941
Lubao,14.9167,120.55,27.01,87,79,1.63,PH,1629912942
Caravelas,-17.7125,-39.2481,25.11,66,57,4.42,BR,1629912942
Novy Urengoy,66.0833,76.6333,9.12,62,72,3.77,RU,1629912942
Gamba,-2.65,10.0,24.07,82,23,4.38,GA,1629912943
Tura,25.5198,90.2201,23.98,98,96,3.13,IN,1629912943
Kortkeros,61.8106,51.5806,11.0,93,20,2.3,RU,1629912943
Souillac,-20.5167,57.5167,21.21,68,40,1.54,MU,1629912944
Kaitangata,-46.2817,169.8464,6.29,90,95,2.06,NZ,1629912944
Taoudenni,22.6783,-3.9836,42.43,5,30,0.53,ML,1629912944
Cherskiy,68.75,161.3,6.13,91,91,2.34,RU,1629912945
Ubari,26.5921,12.7805,32.71,16,0,3.61,LY,1629912945
Kiryat Gat,31.61,34.7642,29.67,100,0,3.98,IL,1629912945
George Town,5.4112,100.3354,27.16,88,20,1.03,MY,1629912663
Launceston,-41.45,147.1667,6.45,83,90,3.58,AU,1629912946
São Filipe,14.8961,-24.4956,26.03,84,94,0.62,CV,1629912946
Fukuechō,32.6881,128.8419,26.82,91,75,9.01,JP,1629912946
Zhalantun,48.0,122.7167,14.39,97,100,1.87,CN,1629912947
Mossamedes,-15.1961,12.1522,17.64,73,1,5.21,AO,1629912947
Giżycko,54.0381,21.7644,15.38,60,100,5.58,PL,1629912947
Hirara,24.8,125.2833,28.23,77,60,5.11,JP,1629912948
Qui Nhon,13.7667,109.2333,25.51,87,100,3.0,VN,1629912948
Padang,-0.9492,100.3543,24.77,86,77,1.52,ID,1629912948
Cayenne,4.9333,-52.3333,32.02,68,20,1.79,GF,1629912948
Walvis Bay,-22.9575,14.5053,15.61,72,0,2.57,NA,1629912949
Pisco,-13.7,-76.2167,22.03,56,45,8.75,PE,1629912949
Vaitape,-16.5167,-151.75,25.58,75,100,7.23,PF,1629912949
Fairbanks,64.8378,-147.7164,13.39,96,90,2.06,US,1629912950
Coquimbo,-29.9533,-71.3436,15.85,58,20,4.63,CL,1629912950
Talnakh,69.4865,88.3972,5.91,97,100,5.06,RU,1629912950
Andenes,69.3143,16.1194,10.99,87,20,2.57,NO,1629912951
Gimli,50.6336,-96.9907,17.46,67,78,4.63,CA,1629912951
Åmot,59.5714,7.9877,19.01,52,36,3.61,NO,1629912951
Bouillante,16.1304,-61.7692,31.57,61,40,3.59,GP,1629912952
Tahara,34.6667,137.2667,27.23,85,43,4.35,JP,1629912952
Teluknaga,-6.0989,106.6381,26.02,83,40,2.06,ID,1629912952
Kachug,53.9606,105.8817,11.79,65,100,1.61,RU,1629912953
Itoman,26.1247,127.6694,28.01,88,20,2.06,JP,1629912953
Dicabisagan,17.0818,122.4157,26.16,85,29,0.52,PH,1629912953
Grand Gaube,-20.0064,57.6608,21.22,70,10,1.34,MU,1629912953
Boulsa,12.6675,-0.5758,29.7,62,100,3.85,BF,1629912954
Bambous Virieux,-20.3428,57.7575,21.14,68,40,1.54,MU,1629912954
Namatanai,-3.6667,152.4333,25.51,82,81,2.98,PG,1629912954
Chui,-33.6971,-53.4616,12.56,90,100,6.83,UY,1629912955
Anchorage,61.2181,-149.9003,13.81,87,90,2.06,US,1629912600
Sobolevo,54.4299,31.8996,12.83,98,100,1.87,RU,1629912955
Ternate,0.8,127.4,26.01,82,100,2.22,ID,1629912955
Gizo Government Station,-8.103,156.8419,26.67,79,97,3.91,SB,1629912956
Chokurdakh,70.6333,147.9167,5.67,94,91,2.29,RU,1629912956
Naze,28.3667,129.4833,24.92,86,94,1.08,JP,1629912957
Faanui,-16.4833,-151.75,25.58,75,99,7.25,PF,1629912957
Atambua,-9.1061,124.8925,20.93,88,81,2.08,ID,1629912957
Morondava,-20.2833,44.2833,23.17,79,0,6.71,MG,1629912958
Sakakah,29.9697,40.2064,39.76,10,0,3.87,SA,1629912958
Kupang,-10.1667,123.5833,23.78,86,16,3.86,ID,1629912958
Atar,20.5169,-13.0499,41.68,13,79,5.22,MR,1629912959
Mount Isa,-20.7333,139.5,12.87,24,0,3.6,AU,1629912959
Thompson,55.7435,-97.8558,16.09,41,40,2.06,CA,1629912959
Palmer,42.1584,-72.3287,32.92,49,40,0.0,US,1629912959
Pitimbu,-7.4706,-34.8086,28.33,79,82,7.32,BR,1629912960
Kuvshinovo,57.0295,34.1725,10.16,70,38,1.89,RU,1629912960
Jiwani,25.05,61.7417,27.14,88,17,4.16,PK,1629912960
Nikolskoye,59.7035,30.7861,12.23,80,100,3.01,RU,1629912961
Huarmey,-10.0681,-78.1522,19.3,76,100,5.79,PE,1629912961
Grand-Lahou,5.1367,-5.0242,25.32,84,99,3.44,CI,1629912961
Puerto Escondido,15.85,-97.0667,30.46,58,75,0.0,MX,1629912962
Riberalta,-10.9833,-66.1,34.11,52,40,5.14,BO,1629912962
Cap-aux-Meules,47.3821,-61.8597,22.03,88,90,4.63,CA,1629912962
Uyar,55.81,94.3153,13.19,82,97,2.05,RU,1629912963
Srednekolymsk,67.45,153.6833,5.8,91,40,1.46,RU,1629912963
Porto-Novo,6.4965,2.6036,27.9,79,59,3.23,BJ,1629912963
The Pas,53.8251,-101.2541,15.01,55,20,1.53,CA,1629912964
Ust'-Omchug,61.15,149.6333,12.36,92,100,2.04,RU,1629912964
Soyaux,45.65,0.2,26.33,40,0,5.66,FR,1629912965
Torbay,47.6666,-52.7314,25.42,81,75,5.66,CA,1629912935
Muros,42.7762,-9.0603,25.28,79,98,1.02,ES,1629912965
Luwuk,-0.9516,122.7875,23.61,90,100,2.33,ID,1629912966
Boralday,43.3578,76.8594,20.92,40,75,1.0,KZ,1629912966
São Borja,-28.6606,-56.0044,14.76,96,100,1.74,BR,1629912966
Malé,4.1748,73.5089,27.97,83,90,6.69,MV,1629912834
Doboz,46.7333,21.25,19.33,64,100,0.74,HU,1629912967
Comodoro Rivadavia,-45.8667,-67.5,10.92,43,40,10.8,AR,1629912967
Wanning,18.8003,110.3967,26.85,87,34,3.6,CN,1629912967
Payo,-3.7508,103.6372,23.04,88,45,0.85,ID,1629912968
Arman',59.7,150.1667,11.85,98,100,1.93,RU,1629912968
Kalnibolotskaya,46.0058,40.4568,24.18,44,13,5.54,RU,1629912968
Peno,56.9262,32.7426,10.55,74,52,2.67,RU,1629912969
Necochea,-38.5473,-58.7368,18.35,35,2,6.18,AR,1629912969
Rehoboth,-23.3167,17.0833,18.56,23,5,6.19,NA,1629912969
Bandarbeyla,9.4942,50.8122,25.32,83,6,14.85,SO,1629912970
Kashgar,39.4547,75.9797,25.56,31,49,5.0,CN,1629912970
Mattawa,46.7379,-119.9028,22.98,22,36,1.19,US,1629912970
Bibiani,6.4635,-2.3194,22.95,98,100,1.28,GH,1629912971
DeLand,29.0283,-81.3031,34.52,53,1,5.14,US,1629912971
Kahului,20.8947,-156.47,25.01,68,20,4.63,US,1629912790
Mount Gambier,-37.8333,140.7667,7.95,76,90,2.57,AU,1629912702
Guiratinga,-16.3494,-53.7583,36.84,13,54,4.16,BR,1629912972
Puerto del Rosario,28.5004,-13.8627,26.82,69,20,6.69,ES,1629912972
Guarapari,-20.6667,-40.4975,27.94,69,0,10.41,BR,1629912972
Murray Bridge,-35.1167,139.2667,8.54,82,62,1.94,AU,1629912973
Marquette,46.5333,-87.6335,27.98,67,15,3.6,US,1629912973
Roald,62.5833,6.1333,15.09,82,75,7.2,NO,1629912973
Hamilton,39.1834,-84.5333,30.96,79,90,0.45,US,1629912974
Hambantota,6.1241,81.1185,26.47,81,44,5.73,LK,1629912974
San Francisco de Macorís,19.2952,-70.2554,32.84,45,62,4.35,DO,1629912974
Atbasar,51.8,68.3333,21.3,43,65,4.09,KZ,1629912975
Vanimo,-2.6741,141.3028,24.78,87,100,2.13,PG,1629912975
Mareeba,-17.0,145.4333,19.4,90,38,0.85,AU,1629912975
Bambanglipuro,-7.95,110.2833,23.56,80,40,1.71,ID,1629912976
Rawson,-43.3002,-65.1023,13.5,33,31,9.83,AR,1629912976
Sarh,9.1429,18.3923,28.95,79,20,2.06,TD,1629912976
Okhotsk,59.3833,143.3,12.99,97,100,1.55,RU,1629912977
Hualmay,-11.0964,-77.6139,18.6,76,99,5.67,PE,1629912977
Gwanda,-20.9333,29.0,22.26,29,0,4.15,ZW,1629912977
Progreso,21.2833,-89.6667,32.28,60,17,5.22,MX,1629912978
Los Llanos de Aridane,28.6585,-17.9182,23.86,88,20,4.12,ES,1629912978
Castro,-24.7911,-50.0119,29.16,29,1,4.97,BR,1629912978
Chicama,-7.8447,-79.1469,16.3,63,82,5.17,PE,1629912979
Puerto Baquerizo Moreno,-0.9,-89.6,23.55,73,40,9.77,EC,1629912980
Mackay,-21.15,149.2,11.69,87,0,2.06,AU,1629912980
Kieta,-6.2167,155.6333,24.94,84,44,1.74,PG,1629912980
Altamont,42.2068,-121.7372,21.54,39,90,0.45,US,1629912980
Egvekinot,66.3167,-179.1667,2.08,97,100,3.06,RU,1629912981
Marang,5.2056,103.2059,25.95,85,100,2.45,MY,1629912981
La Santisima Trinidad,-14.8333,-64.9,30.99,62,75,2.57,BO,1629912981
Cockburn Town,21.4612,-71.1419,29.98,66,40,5.14,TC,1629912933
Cumberland,35.0502,-78.8664,35.26,55,20,1.54,US,1629912982
Mumford,5.2618,-0.759,25.43,83,84,2.65,GH,1629912982
Angostura,25.3667,-108.1833,35.56,56,21,2.14,MX,1629912982
Awjilah,29.1081,21.2869,31.55,25,0,4.2,LY,1629912983
Wasilla,61.5814,-149.4394,13.3,84,75,0.0,US,1629912983
Paraná,-31.732,-60.5238,20.87,23,8,6.23,AR,1629912776
Mwense,-10.3845,28.698,27.25,22,68,3.22,ZM,1629912983
Ahipara,-35.1667,173.1667,10.76,84,27,3.95,NZ,1629912984
Moindou,-21.6924,165.677,19.97,86,9,2.64,NC,1629912984
Shubarkuduk,49.1447,56.4872,25.33,30,100,2.48,KZ,1629912984
Kindu,-2.95,25.95,25.62,63,42,0.89,CD,1629912985
Arrondissement d'Arcachon,44.5875,-1.0519,28.56,39,0,4.12,FR,1629912985
Chakwal,32.9334,72.8585,32.99,39,18,2.58,PK,1629912985
Avera,33.194,-82.5271,33.3,42,12,3.16,US,1629912986
La Romana,18.4273,-68.9728,32.2,62,75,5.14,DO,1629912986
Belawan,3.7755,98.6832,25.16,94,100,2.47,ID,1629912986
Katherine,-14.4667,132.2667,17.18,42,31,3.09,AU,1629912987
Singaraja,-8.112,115.0882,23.65,79,51,3.86,ID,1629912987
Fortuna,40.5982,-124.1573,14.25,90,90,0.0,US,1629912987
Soyo,-6.1349,12.3689,24.03,84,31,5.78,AO,1629912987
São João da Barra,-21.6403,-41.0511,28.05,72,0,10.92,BR,1629912988
Forbes,-33.3833,148.0167,2.42,93,6,1.23,AU,1629912988
Ningyang,35.7642,116.7914,21.0,72,100,1.68,CN,1629912988
Araouane,18.9048,-3.5265,41.87,13,61,5.85,ML,1629912989
Guerrero Negro,27.9769,-114.0611,27.54,56,3,6.28,MX,1629912989
Grindavik,63.8424,-22.4338,13.97,100,90,10.8,IS,1629912990
Rio Verde de Mato Grosso,-18.9181,-54.8442,38.37,14,3,5.63,BR,1629912990
Sapa,5.1544,120.3241,26.5,81,99,2.19,PH,1629912990
Aquiraz,-3.9014,-38.3911,30.05,62,48,7.28,BR,1629912990
Paita,-5.0892,-81.1144,25.31,68,45,7.62,PE,1629912991
Vallenar,-28.5708,-70.7581,16.34,39,51,2.39,CL,1629912991
Rustenburg,-25.6676,27.2421,21.81,35,100,3.4,ZA,1629912991
Aklavik,68.2191,-135.0107,8.4,90,100,0.56,CA,1629912992
Şebinkarahisar,40.2883,38.4236,19.44,71,21,2.78,TR,1629912992
Nortelândia,-14.4547,-56.8028,39.59,14,4,3.25,BR,1629912992
San Policarpo,12.1791,125.5072,27.09,80,100,1.59,PH,1629912993
Mahajanga,-15.7167,46.3167,25.01,73,0,3.09,MG,1629912993
Termez,37.2242,67.2783,29.05,18,0,2.06,UZ,1629912993
Aksu,41.1231,80.2644,21.48,44,14,1.74,CN,1629912994
Mitchell,43.7094,-98.0298,27.63,44,1,5.14,US,1629912994
Qasigiannguit,68.8193,-51.1922,7.14,83,99,3.93,GL,1629912995
Toora-Khem,52.4675,96.11,6.95,73,68,0.7,RU,1629912995
Salta,-24.7859,-65.4117,16.43,29,20,2.24,AR,1629912995
Mogadishu,2.0371,45.3438,24.95,84,51,8.08,SO,1629912996
Codrington,-38.2667,141.9667,9.13,71,100,5.62,AU,1629912996
Dukat,62.55,155.55,12.21,93,95,3.14,RU,1629912996
Seoul,37.5683,126.9778,23.69,97,40,0.51,KR,1629912996
Ibrā’,22.6906,58.5334,30.56,47,7,3.84,OM,1629912997
Port Hardy,50.6996,-127.4199,10.1,93,75,1.54,CA,1629912790
La Ronge,55.1001,-105.2842,17.14,59,20,3.09,CA,1629912998
Bamako,12.65,-8.0,28.23,74,20,1.54,ML,1629912998
Chumikan,54.7183,135.315,13.79,98,77,1.41,RU,1629912998
Faya,18.3851,42.4509,23.06,47,92,4.87,SA,1629912999
Wenzhou,27.9994,120.6668,26.91,94,100,1.1,CN,1629912718
Mahon,39.8885,4.2658,25.31,69,20,3.09,ES,1629912999
Tigil',57.8,158.6667,11.01,86,99,3.74,RU,1629912999
Presque Isle,46.6811,-68.0159,30.82,52,20,1.54,US,1629913000
Pokhara,28.2333,83.9833,23.02,94,94,0.75,NP,1629913000
Kingaroy,-26.5333,151.8333,0.02,100,64,2.06,AU,1629913000
Tiksi,71.6872,128.8694,6.91,93,100,5.34,RU,1629913001
Astara,38.5,48.6667,24.39,89,78,0.67,AZ,1629913001
Biloela,-24.4167,150.5,8.05,53,16,2.38,AU,1629913001
Mildura,-34.2,142.15,4.98,81,13,3.09,AU,1629913002
Vao,-22.6667,167.4833,21.26,79,3,7.42,NC,1629913002
Severobaykal'sk,55.65,109.3167,10.49,68,87,2.9,RU,1629913002
Shimanovsk,52.0,127.7,17.01,97,100,2.68,RU,1629913003
Dolores,-36.3132,-57.6792,15.24,39,95,0.26,AR,1629913003
Beloha,-25.1667,45.05,19.24,90,5,2.29,MG,1629913003
Rodrigues Alves,-7.738,-72.6509,38.11,27,98,2.11,BR,1629913004
Nome,64.5011,-165.4064,3.04,81,1,1.54,US,1629912797
Zakamensk,50.3741,103.2863,3.66,95,73,1.2,RU,1629913004
Arkhara,49.4212,130.0842,17.81,86,93,2.39,RU,1629913005
Zaysan,47.4667,84.8667,20.73,23,0,3.2,KZ,1629913005
Itarema,-2.9248,-39.9167,29.72,59,61,9.01,BR,1629913005
Matagami,49.7502,-77.6328,23.06,56,75,1.03,CA,1629913005
Villareal,11.5659,124.9281,24.37,91,58,0.93,PH,1629913006
Jiayuguan City,39.8167,98.3,16.09,31,2,2.2,CN,1629913006
Laguna,38.421,-121.4238,30.91,58,1,3.09,US,1629913006
Asău,46.4333,26.4,15.98,99,100,0.92,RO,1629913007
Iralaya,15.0,-83.2333,30.05,69,97,3.73,HN,1629913007
Mangai,-4.05,19.5333,27.7,55,42,1.63,CD,1629913008
Raymondville,26.4815,-97.7831,34.45,43,27,4.27,US,1629913008
Vardø,70.3705,31.1107,8.99,81,75,5.14,NO,1629913008
Demir Kapija,41.405,22.2489,27.23,68,73,0.93,MK,1629913009
Mounana,-1.4085,13.1586,30.95,50,69,1.07,GA,1629913009
Prijepolje,43.3719,19.6406,13.6,96,100,0.97,RS,1629913009
Flin Flon,54.7682,-101.865,14.91,47,20,2.06,CA,1629912790
Taylorville,39.5489,-89.2945,33.86,66,1,0.0,US,1629913010
Monte Patria,-30.6919,-70.9467,15.76,46,19,2.98,CL,1629913010
Abu Samrah,35.3029,37.1841,29.41,32,0,4.11,SY,1629913011
Kushima,31.4583,131.2333,24.47,95,97,2.18,JP,1629913012
El Carrizo,24.0261,-106.8814,32.82,63,35,2.14,MX,1629913012
Gladstone,-23.85,151.25,9.96,71,3,2.06,AU,1629913012
Gornopravdinsk,60.05,69.9,20.84,67,15,2.48,RU,1629913013
Ankola,14.6667,74.3,26.29,87,95,1.97,IN,1629913013
Kilindoni,-7.9139,39.6668,24.46,73,0,6.45,TZ,1629913013
Shitanjing,39.2342,106.3439,16.3,32,63,0.47,CN,1629913014
Narsaq,60.9167,-46.05,13.12,58,96,2.3,GL,1629913014
Province of Mantua,45.1667,10.7833,28.18,55,57,0.45,IT,1629912768
Suba,10.8438,121.0102,27.84,75,74,3.63,PH,1629913014
Umluj,25.0213,37.2685,31.46,62,31,1.65,SA,1629913015
Zhuhai,22.2769,113.5678,29.47,84,20,4.12,CN,1629913015
Sarangani,5.4033,125.4636,27.73,77,96,3.76,PH,1629913015
Belaya Gora,68.5333,146.4167,7.1,91,27,3.07,RU,1629913016
Poya,-21.35,165.15,19.53,88,4,2.73,NC,1629913016
Alora,36.8236,-4.7058,29.06,43,0,2.15,ES,1629913016
Yangi Marg`ilon,40.4272,71.7189,26.4,34,1,3.09,UZ,1629913017
Semnan,35.5729,53.3971,29.06,18,34,1.27,IR,1629913017
Maniitsoq,65.4167,-52.9,7.13,87,100,3.35,GL,1629913017
Molango,20.7833,-98.7167,18.84,72,49,2.95,MX,1629913018
Waitara,-38.925,174.25,7.22,82,37,3.53,NZ,1629913018
Sri Aman,1.2376,111.4621,24.03,94,100,0.0,MY,1629913018
Kodīnar,20.7903,70.7031,26.9,82,27,5.42,IN,1629913019
Husavik,66.0449,-17.3389,21.95,82,3,2.65,IS,1629913019
Mbarara,-0.608,30.65,22.07,41,72,2.05,UG,1629913019
Bayan,46.0833,127.4,17.2,95,100,1.14,CN,1629913020
Ouégoa,-20.35,164.4333,21.1,87,8,4.88,NC,1629913020
Guantánamo,20.1444,-75.2092,31.76,50,99,4.38,CU,1629913020
Hastings,50.8552,0.5729,21.75,76,9,5.56,GB,1629913021
El Alto,-4.2714,-81.2147,23.81,60,79,9.44,PE,1629913021
Barabai,-2.5833,115.3833,21.82,97,30,0.46,ID,1629913021
Nizhniy Bestyakh,61.9594,129.9086,12.71,67,20,4.0,RU,1629913021
Saint-Estève,42.7131,2.843,28.0,53,0,2.57,FR,1629913022
Dongsheng,39.8161,109.9776,12.08,55,6,2.2,CN,1629912784
Sydney,-33.8679,151.2073,11.51,74,20,0.89,AU,1629912879
Florø,61.5996,5.0328,16.04,67,40,7.2,NO,1629913022
San Francisco,37.7749,-122.4194,22.86,82,90,1.34,US,1629912898
Novaya Igirma,57.1334,103.9112,8.76,82,29,1.49,RU,1629913023
Dzhubga,44.3211,38.7039,24.45,78,0,1.87,RU,1629913023
Luzon,6.519,126.0941,27.4,77,85,3.31,PH,1629913023
Washington,47.5001,-120.5015,21.07,25,33,1.42,US,1629912897
Kambove,-10.8764,26.5969,23.2,29,17,1.82,CD,1629913024
Yabēlo,4.8833,38.0833,18.32,39,53,6.54,ET,1629913024
Kpandae,8.4689,-0.0113,25.71,84,94,2.97,GH,1629913024
Saint Anthony,45.0205,-93.218,28.97,66,1,2.68,US,1629913025
Ulaangom,49.9811,92.0667,13.7,51,7,1.3,MN,1629912796
Lodja,-3.4833,23.4333,25.59,62,12,0.59,CD,1629913025
Ongandjera,-17.8833,15.0667,25.93,21,16,2.85,NA,1629913025
Khasan,42.4308,130.6434,20.45,94,86,3.08,RU,1629913026
Lata,40.1629,-8.3327,28.53,59,65,3.09,PT,1629913026
Sesheke,-17.4759,24.2968,27.43,19,20,5.34,ZM,1629913026
Mugur-Aksy,50.35,90.5,7.77,81,1,0.6,RU,1629913027
Xining,36.6167,101.7667,8.45,84,84,1.35,CN,1629913027
Diamantino,-14.4086,-56.4461,38.71,14,5,3.57,BR,1629913027
Pandan,14.0453,124.1694,26.25,87,77,2.63,PH,1629913028
Karla,59.3723,24.9275,11.98,87,90,5.66,EE,1629913028
Plettenberg Bay,-34.0527,23.3716,14.63,82,0,1.52,ZA,1629913028
Ranot,7.7777,100.3213,26.67,79,100,5.61,TH,1629913029
Arrondissement de Saint-Denis,48.9167,2.3333,24.52,47,0,1.79,FR,1629913029
Kysyl-Syr,63.8986,122.7617,11.16,78,41,3.0,RU,1629913029
Eyl,7.9803,49.8164,25.58,83,33,9.01,SO,1629913030
Chute-aux-Outardes,49.1168,-68.399,25.17,50,40,2.06,CA,1629913030
Lüderitz,-26.6481,15.1594,12.53,88,6,1.13,NA,1629913030
Poddor'ye,57.4695,31.1156,11.26,83,100,2.37,RU,1629913030
Międzychód,52.5988,15.897,20.32,54,77,4.9,PL,1629913031
Turukhansk,65.8167,87.9833,6.02,82,10,2.72,RU,1629913031
Lincoln,40.8,-96.667,31.12,64,1,1.79,US,1629912572
Marau,-28.4492,-52.2,25.41,47,81,3.93,BR,1629913032
Tucupita,9.0622,-62.051,31.18,59,52,2.09,VE,1629913032
Ilulissat,69.2167,-51.1,7.01,81,75,4.63,GL,1629913032
Chetwayi,10.5333,76.05,25.65,83,75,1.67,IN,1629913033
Shiyan,32.6475,110.7781,18.24,94,100,0.58,CN,1629913033
Mataró,41.5421,2.4445,26.74,74,28,1.34,ES,1629913033
Nizhniy Tsasuchey,50.5167,115.1333,11.99,78,100,7.92,RU,1629913034
Whitecourt,54.1502,-115.6855,13.58,71,1,0.0,CA,1629913034
Vostok,46.4856,135.8833,15.39,82,96,0.99,RU,1629913034
Bourail,-21.5667,165.4833,18.86,91,5,2.48,NC,1629913035
Bagdarin,54.4333,113.6,9.39,76,100,1.9,RU,1629913035
‘Āhuimanu,21.4447,-157.8378,24.92,74,75,4.63,US,1629913035
Praia,14.9215,-23.5087,29.3,74,40,4.63,CV,1629913036
Newport,51.5877,-2.9984,20.67,71,65,4.04,GB,1629912931
Belle Fourche,44.6714,-103.8522,27.36,28,4,7.68,US,1629913036
Hobyo,5.3505,48.5268,25.49,86,45,10.04,SO,1629913036
Hailar,49.2,119.7,13.45,97,100,3.7,CN,1629913037
Adrar,20.5022,-10.0711,41.75,9,35,5.01,MR,1629913037
Semey,50.4111,80.2275,20.37,45,0,3.68,KZ,1629913037
Chapais,49.7834,-74.8492,22.88,39,48,1.89,CA,1629912769
Belūsovka,50.1339,82.5239,11.47,87,0,0.0,KZ,1629913038
Sistranda,63.7256,8.834,12.98,87,40,8.06,NO,1629913038
Norfolk,42.1668,-71.2495,33.9,55,1,0.45,US,1629913038
Beloeil,45.5668,-73.1992,33.47,52,1,1.79,CA,1629913039
Aksarka,66.5606,67.7975,10.27,60,100,6.43,RU,1629913039
Yar-Sale,66.8333,70.8333,9.78,58,100,5.01,RU,1629913039
Dzilam González,21.2833,-88.9333,34.67,41,24,2.32,MX,1629913040
Sedro-Woolley,48.5039,-122.2361,23.1,60,1,0.0,US,1629913040
Saint-Paul,-21.0096,55.2707,20.06,74,40,0.58,RE,1629913040
Ovalle,-30.5983,-71.2003,17.33,44,11,3.05,CL,1629913041
Jutaí,-5.1833,-68.9,38.47,25,31,1.64,BR,1629913041
Río Gallegos,-51.6226,-69.2181,6.03,75,75,5.14,AR,1629913041
Port Augusta,-32.5,137.7667,9.08,86,43,0.99,AU,1629913042
Tarakan,3.3,117.6333,26.46,80,99,1.97,ID,1629913042
Shonguy,68.7526,33.146,9.04,100,75,0.0,RU,1629913042
Isangel,-19.55,169.2667,22.09,83,18,6.19,VU,1629913043
Khāsh,28.2211,61.2158,25.35,12,0,3.16,IR,1629913043
Eureka,40.8021,-124.1637,14.58,83,58,1.34,US,1629913043
Peniche,39.3558,-9.3811,24.38,80,57,5.56,PT,1629913044
Calama,-22.4667,-68.9333,16.27,10,0,11.83,CL,1629913044
Khandyga,62.6667,135.6,11.99,98,100,2.48,RU,1629913044
Pushkino,56.0172,37.8667,16.21,67,79,2.68,RU,1629913045
Puksoozero,62.5903,40.6066,7.04,92,82,1.51,RU,1629913045
Mariehamn,60.0973,19.9348,12.92,94,75,1.54,AX,1629913045
Zyryanka,65.75,150.85,9.91,91,100,2.75,RU,1629913046
Antalaha,-14.9003,50.2788,19.49,84,0,3.86,MG,1629913046
Lagdo,9.05,13.7333,24.62,88,100,0.89,CM,1629913046
Beringovskiy,63.05,179.3167,6.4,86,100,5.61,RU,1629913047
Mayo,38.8876,-76.5119,35.77,62,0,1.79,US,1629913047
Tomatlán,19.9333,-105.25,31.17,67,65,2.12,MX,1629913047
Sorong,-0.8833,131.25,24.86,88,100,2.31,ID,1629913048
Paamiut,61.994,-49.6678,6.32,95,100,1.6,GL,1629913048
Khovd,48.0056,91.6419,13.93,52,3,0.72,MN,1629913048
Talakan,50.3167,130.3667,17.88,94,100,1.89,RU,1629913048
Langarūd,37.197,50.1535,27.99,81,49,2.63,IR,1629913049
Zarichne,51.8126,26.129,13.41,83,67,2.04,UA,1629913049
Cairns,-16.9167,145.7667,21.97,81,90,1.54,AU,1629913049
Likasi,-10.9814,26.7333,23.42,29,28,1.38,CD,1629913050
Hwange,-18.3693,26.5019,24.87,30,1,1.69,ZW,1629913050
Pilar,-9.5972,-35.9567,26.96,66,62,4.95,BR,1629913050
